{
  "station": {
    "latitude": 17.513678,
    "longitude": 78.468307,
    "name": "Main Distribution Center"
  },
  "orders": [
    {
      "orderId": "ORD001",
      "latitude": 17.385234,
      "longitude": 78.486789,
      "weight": 5.2,
      "packages": 2,
      "address": "Charminar Old City"
    },
    {
      "orderId": "ORD002", 
      "latitude": 17.492156,
      "longitude": 78.391234,
      "weight": 3.8,
      "packages": 1,
      "address": "Rajendranagar"
    },
    {
      "orderId": "ORD003",
      "latitude": 17.448901,
      "longitude": 78.391567,
      "weight": 7.1,
      "packages": 3,
      "address": "Mehdipatnam"
    },
    {
      "orderId": "ORD004",
      "latitude": 17.366789,
      "longitude": 78.476234,
      "weight": 4.5,
      "packages": 2,
      "address": "Falaknuma"
    },
    {
      "orderId": "ORD005",
      "latitude": 17.594567,
      "longitude": 78.123456,
      "weight": 6.3,
      "packages": 4,
      "address": "Shamirpet"
    },
    {
      "orderId": "ORD006",
      "latitude": 17.542890,
      "longitude": 78.571234,
      "weight": 2.9,
      "packages": 1,
      "address": "Uppal"
    },
    {
      "orderId": "ORD007",
      "latitude": 17.685123,
      "longitude": 78.456789,
      "weight": 8.7,
      "packages": 5,
      "address": "Kompally"
    },
    {
      "orderId": "ORD008",
      "latitude": 17.456234,
      "longitude": 78.234567,
      "weight": 3.2,
      "packages": 2,
      "address": "Langar Houz"
    },
    {
      "orderId": "ORD009",
      "latitude": 17.325678,
      "longitude": 78.512345,
      "weight": 5.8,
      "packages": 3,
      "address": "Shamshabad"
    },
    {
      "orderId": "ORD010",
      "latitude": 17.612345,
      "longitude": 78.289012,
      "weight": 4.1,
      "packages": 2,
      "address": "Patancheru"
    },
    {
      "orderId": "ORD011",
      "latitude": 17.734567,
      "longitude": 78.512890,
      "weight": 6.9,
      "packages": 4,
      "address": "Medchal"
    },
    {
      "orderId": "ORD012",
      "latitude": 17.298765,
      "longitude": 78.445678,
      "weight": 3.7,
      "packages": 1,
      "address": "Rajiv Gandhi Airport"
    },
    {
      "orderId": "ORD013",
      "latitude": 17.567890,
      "longitude": 78.678901,
      "weight": 7.5,
      "packages": 3,
      "address": "Ghatkesar"
    },
    {
      "orderId": "ORD014",
      "latitude": 17.423456,
      "longitude": 78.156789,
      "weight": 4.8,
      "packages": 2,
      "address": "Shankarpally"
    },
    {
      "orderId": "ORD015",
      "latitude": 17.678234,
      "longitude": 78.345678,
      "weight": 5.5,
      "packages": 3,
      "address": "Quthbullapur"
    },
    {
      "orderId": "ORD016",
      "latitude": 17.345123,
      "longitude": 78.623456,
      "weight": 3.4,
      "packages": 1,
      "address": "Hayathnagar"
    },
    {
      "orderId": "ORD017",
      "latitude": 17.789012,
      "longitude": 78.423789,
      "weight": 6.7,
      "packages": 4,
      "address": "Keesara"
    },
    {
      "orderId": "ORD018",
      "latitude": 17.234567,
      "longitude": 78.345123,
      "weight": 4.2,
      "packages": 2,
      "address": "Chevella"
    },
    {
      "orderId": "ORD019",
      "latitude": 17.656789,
      "longitude": 78.789012,
      "weight": 5.9,
      "packages": 3,
      "address": "Bhongir"
    },
    {
      "orderId": "ORD020",
      "latitude": 17.412345,
      "longitude": 78.678234,
      "weight": 3.9,
      "packages": 2,
      "address": "LB Nagar"
    },
    {
      "orderId": "ORD021",
      "latitude": 17.723456,
      "longitude": 78.234890,
      "weight": 6.1,
      "packages": 3,
      "address": "Sangareddy"
    },
    {
      "orderId": "ORD022",
      "latitude": 17.289012,
      "longitude": 78.567123,
      "weight": 4.6,
      "packages": 2,
      "address": "Ibrahimpatnam"
    },
    {
      "orderId": "ORD023",
      "latitude": 17.812345,
      "longitude": 78.456123,
      "weight": 7.8,
      "packages": 4,
      "address": "Dundigal"
    },
    {
      "orderId": "ORD024",
      "latitude": 17.367890,
      "longitude": 78.234456,
      "weight": 4.3,
      "packages": 2,
      "address": "Vikarabad"
    },
    {
      "orderId": "ORD025",
      "latitude": 17.645123,
      "longitude": 78.612789,
      "weight": 5.4,
      "packages": 3,
      "address": "Pocharam"
    },
    {
      "orderId": "ORD026",
      "latitude": 17.456789,
      "longitude": 78.789456,
      "weight": 3.6,
      "packages": 1,
      "address": "Yadadri"
    },
    {
      "orderId": "ORD027",
      "latitude": 17.789456,
      "longitude": 78.123789,
      "weight": 6.8,
      "packages": 4,
      "address": "Zaheerabad"
    },
    {
      "orderId": "ORD028",
      "latitude": 17.234890,
      "longitude": 78.456890,
      "weight": 4.9,
      "packages": 2,
      "address": "Shadnagar"
    },
    {
      "orderId": "ORD029",
      "latitude": 17.567123,
      "longitude": 78.234123,
      "weight": 7.2,
      "packages": 3,
      "address": "Siddipet"
    },
    {
      "orderId": "ORD030",
      "latitude": 17.423789,
      "longitude": 78.567890,
      "weight": 4.7,
      "packages": 2,
      "address": "Vanasthalipuram"
    }
  ]
}